# 
# Header Description:
# 
# Version: v3.0.6.4 Platform: 14 Manufacturer: samsung Model: SM-S918B
# 
# Raw,utcTimeMillis,TimeNanos,LeapSecond,TimeUncertaintyNanos,FullBiasNanos,BiasNanos,BiasUncertaintyNanos,DriftNanosPerSecond,DriftUncertaintyNanosPerSecond,HardwareClockDiscontinuityCount,Svid,TimeOffsetNanos,State,ReceivedSvTimeNanos,ReceivedSvTimeUncertaintyNanos,Cn0DbHz,PseudorangeRateMetersPerSecond,PseudorangeRateUncertaintyMetersPerSecond,AccumulatedDeltaRangeState,AccumulatedDeltaRangeMeters,AccumulatedDeltaRangeUncertaintyMeters,CarrierFrequencyHz,CarrierCycles,CarrierPhase,CarrierPhaseUncertainty,MultipathIndicator,SnrInDb,ConstellationType,AgcDb,BasebandCn0DbHz,FullInterSignalBiasNanos,FullInterSignalBiasUncertaintyNanos,SatelliteInterSignalBiasNanos,SatelliteInterSignalBiasUncertaintyNanos,CodeType,ChipsetElapsedRealtimeNanos
# 
# UncalAccel,utcTimeMillis,elapsedRealtimeNanos,UncalAccelXMps2,UncalAccelYMps2,UncalAccelZMps2,BiasXMps2,BiasYMps2,BiasZMps2
# 
# Accel,utcTimeMillis,elapsedRealtimeNanos,AccelXMps2,AccelYMps2,AccelZMps2
# 
# UncalGyro,utcTimeMillis,elapsedRealtimeNanos,UncalGyroXRadPerSec,UncalGyroYRadPerSec,UncalGyroZRadPerSec,DriftXRadPerSec,DriftYRadPerSec,DriftZRadPerSec
# 
# Gyro,utcTimeMillis,elapsedRealtimeNanos,GyroXRadPerSec,GyroYRadPerSec,GyroZRadPerSec
# 
# UncalMag,utcTimeMillis,elapsedRealtimeNanos,UncalMagXMicroT,UncalMagYMicroT,UncalMagZMicroT,BiasXMicroT,BiasYMicroT,BiasZMicroT
# 
# Mag,utcTimeMillis,elapsedRealtimeNanos,MagXMicroT,MagYMicroT,MagZMicroT
# 
# OrientationDeg,utcTimeMillis,elapsedRealtimeNanos,yawDeg,rollDeg,pitchDeg
# 
# Fix,Provider,LatitudeDegrees,LongitudeDegrees,AltitudeMeters,SpeedMps,AccuracyMeters,BearingDegrees,UnixTimeMillis,SpeedAccuracyMps,BearingAccuracyDegrees,elapsedRealtimeNanos,VerticalAccuracyMeters,MockLocation,NumberOfUsedSignals,VerticalSpeedAccuracyMps,SolutionType
# 
# Nav,Svid,Type,Status,MessageId,Sub-messageId,Data(Bytes)
# 
# Status,UnixTimeMillis,SignalCount,SignalIndex,ConstellationType,Svid,CarrierFrequencyHz,Cn0DbHz,AzimuthDegrees,ElevationDegrees,UsedInFix,HasAlmanacData,HasEphemerisData,BasebandCn0DbHz
# 
# Agc,utcTimeMillis,TimeNanos,LeapSecond,TimeUncertaintyNanos,FullBiasNanos,BiasNanos,BiasUncertaintyNanos,DriftNanosPerSecond,DriftUncertaintyNanosPerSecond,HardwareClockDiscontinuityCount,AgcDb,CarrierFrequencyHz,ConstellationType
# 
Status,,1,0,6,5,1575420030,20.50,257.63928,42.19758,1,1,0,15.5
Raw,1713419512424,498832978000000,18,0.0,-1396955897446219372,-0.4066019058227539,107381.35129213333,-1.9531249475624988,266.3356301245171,10,5,0.0,23567,366730345741981,92,24.8,209.31353759765625,1.9869999885559082,16,0.0,0.0,1575420030,,,,0,0.0,6,-53.93,20.5,-1467.3328857421875,26.5100154876709,,,C,564663053489435
Agc,1713419512424,498832978000000,18,0.0,-1396955897446219372,-0.4066019058227539,107381.35129213333,-1.9531249475624988,266.3356301245171,10,-50.1,1575420000,1
Agc,1713419512424,498832978000000,18,0.0,-1396955897446219372,-0.4066019058227539,107381.35129213333,-1.9531249475624988,266.3356301245171,10,-50.1,1575420000,4
Agc,1713419512424,498832978000000,18,0.0,-1396955897446219372,-0.4066019058227539,107381.35129213333,-1.9531249475624988,266.3356301245171,10,-53.15,1602000000,3
Agc,1713419512424,498832978000000,18,0.0,-1396955897446219372,-0.4066019058227539,107381.35129213333,-1.9531249475624988,266.3356301245171,10,-59.05,1561098000,5
Agc,1713419512424,498832978000000,18,0.0,-1396955897446219372,-0.4066019058227539,107381.35129213333,-1.9531249475624988,266.3356301245171,10,-53.93,1575420000,6
Agc,1713419512424,498832978000000,18,0.0,-1396955897446219372,-0.4066019058227539,107381.35129213333,-1.9531249475624988,266.3356301245171,10,-39.55,1176450000,1
Agc,1713419512424,498832978000000,18,0.0,-1396955897446219372,-0.4066019058227539,107381.35129213333,-1.9531249475624988,266.3356301245171,10,-39.55,1176450000,4
Agc,1713419512424,498832978000000,18,0.0,-1396955897446219372,-0.4066019058227539,107381.35129213333,-1.9531249475624988,266.3356301245171,10,-39.55,1176450000,6
Agc,1713419512424,498832978000000,18,0.0,-1396955897446219372,-0.4066019058227539,107381.35129213333,-1.9531249475624988,266.3356301245171,10,-39.55,1176450000,5
Agc,1713419512424,498832978000000,18,0.0,-1396955897446219372,-0.4066019058227539,107381.35129213333,-1.9531249475624988,266.3356301245171,10,-53.93,1575420000,5
Fix,NLP,32.1050823000,35.2054633000,667.5,,20.0,,1713419511052,,,564662194000000,1.0,0,,,
Status,,1,0,6,5,1575420030,20.50,257.50754,42.14849,1,1,0,15.5
Agc,1713419513424,498833978000000,18,0.0,-1396955897446219371,-0.4231252670288086,107644.34933662415,0.9765624737812494,266.3356301245171,10,-50.01,1575420000,1
Agc,1713419513424,498833978000000,18,0.0,-1396955897446219371,-0.4231252670288086,107644.34933662415,0.9765624737812494,266.3356301245171,10,-50.01,1575420000,4
Agc,1713419513424,498833978000000,18,0.0,-1396955897446219371,-0.4231252670288086,107644.34933662415,0.9765624737812494,266.3356301245171,10,-52.92,1602000000,3
Agc,1713419513424,498833978000000,18,0.0,-1396955897446219371,-0.4231252670288086,107644.34933662415,0.9765624737812494,266.3356301245171,10,-59.18,1561098000,5
Agc,1713419513424,498833978000000,18,0.0,-1396955897446219371,-0.4231252670288086,107644.34933662415,0.9765624737812494,266.3356301245171,10,-53.85,1575420000,6
Agc,1713419513424,498833978000000,18,0.0,-1396955897446219371,-0.4231252670288086,107644.34933662415,0.9765624737812494,266.3356301245171,10,-39.43,1176450000,1
Agc,1713419513424,498833978000000,18,0.0,-1396955897446219371,-0.4231252670288086,107644.34933662415,0.9765624737812494,266.3356301245171,10,-39.43,1176450000,4
Agc,1713419513424,498833978000000,18,0.0,-1396955897446219371,-0.4231252670288086,107644.34933662415,0.9765624737812494,266.3356301245171,10,-39.43,1176450000,6
Agc,1713419513424,498833978000000,18,0.0,-1396955897446219371,-0.4231252670288086,107644.34933662415,0.9765624737812494,266.3356301245171,10,-39.43,1176450000,5
Agc,1713419513424,498833978000000,18,0.0,-1396955897446219371,-0.4231252670288086,107644.34933662415,0.9765624737812494,266.3356301245171,10,-53.85,1575420000,5
Status,,1,0,6,5,1575420030,19.90,257.50754,42.14849,1,1,0,14.9
Raw,1713419514424,498834978000000,18,0.0,-1396955897446219373,-0.37517738342285156,107907.34738111496,-1.9531249475624988,266.3356301245171,10,5,0.0,23567,366732345740569,106,24.2,209.3325653076172,1.9869999885559082,16,0.0,0.0,1575420030,,,,0,0.0,6,-53.8,19.9,-1467.3328857421875,26.5100154876709,,,C,564665053013445
Agc,1713419514424,498834978000000,18,0.0,-1396955897446219373,-0.37517738342285156,107907.34738111496,-1.9531249475624988,266.3356301245171,10,-50.01,1575420000,1
Agc,1713419514424,498834978000000,18,0.0,-1396955897446219373,-0.37517738342285156,107907.34738111496,-1.9531249475624988,266.3356301245171,10,-50.01,1575420000,4
Agc,1713419514424,498834978000000,18,0.0,-1396955897446219373,-0.37517738342285156,107907.34738111496,-1.9531249475624988,266.3356301245171,10,-52.87,1602000000,3
Agc,1713419514424,498834978000000,18,0.0,-1396955897446219373,-0.37517738342285156,107907.34738111496,-1.9531249475624988,266.3356301245171,10,-59.15,1561098000,5
Agc,1713419514424,498834978000000,18,0.0,-1396955897446219373,-0.37517738342285156,107907.34738111496,-1.9531249475624988,266.3356301245171,10,-53.8,1575420000,6
Agc,1713419514424,498834978000000,18,0.0,-1396955897446219373,-0.37517738342285156,107907.34738111496,-1.9531249475624988,266.3356301245171,10,-39.26,1176450000,1
Agc,1713419514424,498834978000000,18,0.0,-1396955897446219373,-0.37517738342285156,107907.34738111496,-1.9531249475624988,266.3356301245171,10,-39.26,1176450000,4
Agc,1713419514424,498834978000000,18,0.0,-1396955897446219373,-0.37517738342285156,107907.34738111496,-1.9531249475624988,266.3356301245171,10,-39.26,1176450000,6
Agc,1713419514424,498834978000000,18,0.0,-1396955897446219373,-0.37517738342285156,107907.34738111496,-1.9531249475624988,266.3356301245171,10,-39.26,1176450000,5
Agc,1713419514424,498834978000000,18,0.0,-1396955897446219373,-0.37517738342285156,107907.34738111496,-1.9531249475624988,266.3356301245171,10,-53.8,1575420000,5
Status,,2,0,5,24,1561097980,19.30,323.85913,49.971268,1,1,0,14.3
Status,,2,1,6,5,1575420030,19.90,257.50754,42.14849,1,1,0,14.9
Raw,1713419515424,498835978000000,18,0.0,-1396955897446219375,-0.32722949981689453,108170.34542560577,-1.9531249475624988,266.3356301245171,10,24,0.0,16399,366719349375891,106,23.6,-320.4659118652344,4.985000133514404,16,0.0,0.0,1561097980,,,,0,0.0,5,-59.05,19.3,-1529.8797607421875,21.58974838256836,,,I,564666053107403
Agc,1713419515424,498835978000000,18,0.0,-1396955897446219375,-0.32722949981689453,108170.34542560577,-1.9531249475624988,266.3356301245171,10,-50.05,1575420000,1
Agc,1713419515424,498835978000000,18,0.0,-1396955897446219375,-0.32722949981689453,108170.34542560577,-1.9531249475624988,266.3356301245171,10,-50.05,1575420000,4
Agc,1713419515424,498835978000000,18,0.0,-1396955897446219375,-0.32722949981689453,108170.34542560577,-1.9531249475624988,266.3356301245171,10,-53.06,1602000000,3
Agc,1713419515424,498835978000000,18,0.0,-1396955897446219375,-0.32722949981689453,108170.34542560577,-1.9531249475624988,266.3356301245171,10,-59.05,1561098000,5
Agc,1713419515424,498835978000000,18,0.0,-1396955897446219375,-0.32722949981689453,108170.34542560577,-1.9531249475624988,266.3356301245171,10,-53.86,1575420000,6
Agc,1713419515424,498835978000000,18,0.0,-1396955897446219375,-0.32722949981689453,108170.34542560577,-1.9531249475624988,266.3356301245171,10,-39.43,1176450000,1
Agc,1713419515424,498835978000000,18,0.0,-1396955897446219375,-0.32722949981689453,108170.34542560577,-1.9531249475624988,266.3356301245171,10,-39.43,1176450000,4
Agc,1713419515424,498835978000000,18,0.0,-1396955897446219375,-0.32722949981689453,108170.34542560577,-1.9531249475624988,266.3356301245171,10,-39.43,1176450000,6
Agc,1713419515424,498835978000000,18,0.0,-1396955897446219375,-0.32722949981689453,108170.34542560577,-1.9531249475624988,266.3356301245171,10,-39.43,1176450000,5
Agc,1713419515424,498835978000000,18,0.0,-1396955897446219375,-0.32722949981689453,108170.34542560577,-1.9531249475624988,266.3356301245171,10,-53.86,1575420000,5
Agc,1713419516424,498836978000000,18,0.0,-1396955897446219500,-0.8993148803710938,108181.45424127579,-0.9765624737812494,267.1052563884775,10,-50.05,1575420000,1
Agc,1713419516424,498836978000000,18,0.0,-1396955897446219500,-0.8993148803710938,108181.45424127579,-0.9765624737812494,267.1052563884775,10,-50.05,1575420000,4
Agc,1713419516424,498836978000000,18,0.0,-1396955897446219500,-0.8993148803710938,108181.45424127579,-0.9765624737812494,267.1052563884775,10,-53.14,1602000000,3
Agc,1713419516424,498836978000000,18,0.0,-1396955897446219500,-0.8993148803710938,108181.45424127579,-0.9765624737812494,267.1052563884775,10,-39.67,1176450000,1
Agc,1713419516424,498836978000000,18,0.0,-1396955897446219500,-0.8993148803710938,108181.45424127579,-0.9765624737812494,267.1052563884775,10,-39.67,1176450000,4
Agc,1713419517424,498837978000000,18,0.0,-1396955897446219375,-0.3123283386230469,108295.0159907341,0.9765624737812494,267.3555210759912,10,-50.01,1575420000,1
Agc,1713419517424,498837978000000,18,0.0,-1396955897446219375,-0.3123283386230469,108295.0159907341,0.9765624737812494,267.3555210759912,10,-50.01,1575420000,4
Agc,1713419517424,498837978000000,18,0.0,-1396955897446219375,-0.3123283386230469,108295.0159907341,0.9765624737812494,267.3555210759912,10,-53.09,1602000000,3
Agc,1713419517424,498837978000000,18,0.0,-1396955897446219375,-0.3123283386230469,108295.0159907341,0.9765624737812494,267.3555210759912,10,-39.55,1176450000,1
Agc,1713419517424,498837978000000,18,0.0,-1396955897446219375,-0.3123283386230469,108295.0159907341,0.9765624737812494,267.3555210759912,10,-39.55,1176450000,4
Fix,NLP,32.1050828000,35.2054629000,667.5,,20.0,,1713419516134,,,564667277000000,1.0,0,,,
Fix,FLP,32.1050827000,35.2054630000,667.5,0.0064400756,20.0,,1713419516134,1.5,,564667277000000,1.0053637,0,,,
Agc,1713419518424,498838978000000,18,0.0,-1396955897446219423,-0.040747642517089844,108391.21043682098,-0.9765624737812494,266.3356301245171,10,-50.03,1575420000,1
Agc,1713419518424,498838978000000,18,0.0,-1396955897446219423,-0.040747642517089844,108391.21043682098,-0.9765624737812494,266.3356301245171,10,-50.03,1575420000,4
Agc,1713419518424,498838978000000,18,0.0,-1396955897446219423,-0.040747642517089844,108391.21043682098,-0.9765624737812494,266.3356301245171,10,-53.1,1602000000,3
Agc,1713419518424,498838978000000,18,0.0,-1396955897446219423,-0.040747642517089844,108391.21043682098,-0.9765624737812494,266.3356301245171,10,-39.71,1176450000,1
Agc,1713419518424,498838978000000,18,0.0,-1396955897446219423,-0.040747642517089844,108391.21043682098,-0.9765624737812494,266.3356301245171,10,-39.71,1176450000,4
Agc,1713419519424,498839978000000,18,0.0,-1396955897446219370,-0.1565265655517578,108491.89013242722,-1.9531249475624988,266.3356301245171,10,-50.01,1575420000,1
Agc,1713419519424,498839978000000,18,0.0,-1396955897446219370,-0.1565265655517578,108491.89013242722,-1.9531249475624988,266.3356301245171,10,-50.01,1575420000,4
Agc,1713419519424,498839978000000,18,0.0,-1396955897446219370,-0.1565265655517578,108491.89013242722,-1.9531249475624988,266.3356301245171,10,-52.83,1602000000,3
Agc,1713419519424,498839978000000,18,0.0,-1396955897446219370,-0.1565265655517578,108491.89013242722,-1.9531249475624988,266.3356301245171,10,-39.43,1176450000,1
Agc,1713419519424,498839978000000,18,0.0,-1396955897446219370,-0.1565265655517578,108491.89013242722,-1.9531249475624988,266.3356301245171,10,-39.43,1176450000,4
Agc,1713419520424,498840978000000,18,0.0,-1396955897446219477,-0.4895906448364258,108105.75634241104,-1.9531249475624988,268.05007302348173,10,-50.01,1575420000,1
Agc,1713419520424,498840978000000,18,0.0,-1396955897446219477,-0.4895906448364258,108105.75634241104,-1.9531249475624988,268.05007302348173,10,-50.01,1575420000,4
Agc,1713419520424,498840978000000,18,0.0,-1396955897446219477,-0.4895906448364258,108105.75634241104,-1.9531249475624988,268.05007302348173,10,-52.92,1602000000,3
Agc,1713419520424,498840978000000,18,0.0,-1396955897446219477,-0.4895906448364258,108105.75634241104,-1.9531249475624988,268.05007302348173,10,-39.83,1176450000,1
Agc,1713419520424,498840978000000,18,0.0,-1396955897446219477,-0.4895906448364258,108105.75634241104,-1.9531249475624988,268.05007302348173,10,-39.83,1176450000,4
Agc,1713419521424,498841978000000,18,0.0,-1396955897446219476,-0.5061140060424805,108368.75438690186,0.9765624737812494,266.3356301245171,10,-50.1,1575420000,1
Agc,1713419521424,498841978000000,18,0.0,-1396955897446219476,-0.5061140060424805,108368.75438690186,0.9765624737812494,266.3356301245171,10,-50.1,1575420000,4
Agc,1713419521424,498841978000000,18,0.0,-1396955897446219476,-0.5061140060424805,108368.75438690186,0.9765624737812494,266.3356301245171,10,-53.12,1602000000,3
Agc,1713419521424,498841978000000,18,0.0,-1396955897446219476,-0.5061140060424805,108368.75438690186,0.9765624737812494,266.3356301245171,10,-40.07,1176450000,1
Agc,1713419521424,498841978000000,18,0.0,-1396955897446219476,-0.5061140060424805,108368.75438690186,0.9765624737812494,266.3356301245171,10,-40.07,1176450000,4
Agc,1713419522424,498842978000000,18,0.0,-1396955897446219474,-0.5540618896484375,108631.75243139267,1.9531249475624988,266.3356301245171,10,-50.1,1575420000,1
Agc,1713419522424,498842978000000,18,0.0,-1396955897446219474,-0.5540618896484375,108631.75243139267,1.9531249475624988,266.3356301245171,10,-50.1,1575420000,4
Agc,1713419522424,498842978000000,18,0.0,-1396955897446219474,-0.5540618896484375,108631.75243139267,1.9531249475624988,266.3356301245171,10,-53.11,1602000000,3
Agc,1713419522424,498842978000000,18,0.0,-1396955897446219474,-0.5540618896484375,108631.75243139267,1.9531249475624988,266.3356301245171,10,-40.14,1176450000,1
Agc,1713419522424,498842978000000,18,0.0,-1396955897446219474,-0.5540618896484375,108631.75243139267,1.9531249475624988,266.3356301245171,10,-40.14,1176450000,4
Fix,NLP,32.1050819000,35.2054641000,667.5,,20.0,,1713419521140,,,564672282000000,1.0277508,0,,,
Fix,FLP,32.1050821000,35.2054639000,667.5,0.010676768,20.0,,1713419521140,1.5,,564672282000000,1.0206213,0,,,
Agc,1713419523424,498843978000000,18,0.0,-1396955897446219476,-0.5061140060424805,108894.75047588348,-1.9531249475624988,266.3356301245171,10,-50.05,1575420000,1
Agc,1713419523424,498843978000000,18,0.0,-1396955897446219476,-0.5061140060424805,108894.75047588348,-1.9531249475624988,266.3356301245171,10,-50.05,1575420000,4
Agc,1713419523424,498843978000000,18,0.0,-1396955897446219476,-0.5061140060424805,108894.75047588348,-1.9531249475624988,266.3356301245171,10,-53.0,1602000000,3
Agc,1713419523424,498843978000000,18,0.0,-1396955897446219476,-0.5061140060424805,108894.75047588348,-1.9531249475624988,266.3356301245171,10,-39.99,1176450000,1
Agc,1713419523424,498843978000000,18,0.0,-1396955897446219476,-0.5061140060424805,108894.75047588348,-1.9531249475624988,266.3356301245171,10,-39.99,1176450000,4
Agc,1713419524424,498844978000000,18,0.0,-1396955897446219480,-0.4102182388305664,109158.4786772728,-3.9062498951249975,267.0614587957166,10,-50.1,1575420000,1
Agc,1713419524424,498844978000000,18,0.0,-1396955897446219480,-0.4102182388305664,109158.4786772728,-3.9062498951249975,267.0614587957166,10,-50.1,1575420000,4
Agc,1713419524424,498844978000000,18,0.0,-1396955897446219480,-0.4102182388305664,109158.4786772728,-3.9062498951249975,267.0614587957166,10,-53.06,1602000000,3
Agc,1713419524424,498844978000000,18,0.0,-1396955897446219480,-0.4102182388305664,109158.4786772728,-3.9062498951249975,267.0614587957166,10,-40.01,1176450000,1
Agc,1713419524424,498844978000000,18,0.0,-1396955897446219480,-0.4102182388305664,109158.4786772728,-3.9062498951249975,267.0614587957166,10,-40.01,1176450000,4
Agc,1713419525424,498845978000000,18,0.0,-1396955897446219481,-0.3936948776245117,109422.43784666061,-0.9765624737812494,267.2929676285732,10,-50.1,1575420000,1
Agc,1713419525424,498845978000000,18,0.0,-1396955897446219481,-0.3936948776245117,109422.43784666061,-0.9765624737812494,267.2929676285732,10,-50.1,1575420000,4
Agc,1713419525424,498845978000000,18,0.0,-1396955897446219481,-0.3936948776245117,109422.43784666061,-0.9765624737812494,267.2929676285732,10,-53.13,1602000000,3
Agc,1713419525424,498845978000000,18,0.0,-1396955897446219481,-0.3936948776245117,109422.43784666061,-0.9765624737812494,267.2929676285732,10,-39.75,1176450000,1
Agc,1713419525424,498845978000000,18,0.0,-1396955897446219481,-0.3936948776245117,109422.43784666061,-0.9765624737812494,267.2929676285732,10,-39.75,1176450000,4
Agc,1713419526424,498846978000000,18,0.0,-1396955897446219480,-0.4102182388305664,109686.7024898529,0.9765624737812494,267.59955077789965,10,-50.05,1575420000,1
Agc,1713419526424,498846978000000,18,0.0,-1396955897446219480,-0.4102182388305664,109686.7024898529,0.9765624737812494,267.59955077789965,10,-50.05,1575420000,4
Agc,1713419526424,498846978000000,18,0.0,-1396955897446219480,-0.4102182388305664,109686.7024898529,0.9765624737812494,267.59955077789965,10,-53.02,1602000000,3
Agc,1713419526424,498846978000000,18,0.0,-1396955897446219480,-0.4102182388305664,109686.7024898529,0.9765624737812494,267.59955077789965,10,-39.59,1176450000,1
Agc,1713419526424,498846978000000,18,0.0,-1396955897446219480,-0.4102182388305664,109686.7024898529,0.9765624737812494,267.59955077789965,10,-39.59,1176450000,4
Agc,1713419527424,498847978000000,18,0.0,-1396955897446219479,-0.4267416000366211,109949.70053434372,0.9765624737812494,266.3356301245171,10,-50.01,1575420000,1
Agc,1713419527424,498847978000000,18,0.0,-1396955897446219479,-0.4267416000366211,109949.70053434372,0.9765624737812494,266.3356301245171,10,-50.01,1575420000,4
Agc,1713419527424,498847978000000,18,0.0,-1396955897446219479,-0.4267416000366211,109949.70053434372,0.9765624737812494,266.3356301245171,10,-52.99,1602000000,3
Agc,1713419527424,498847978000000,18,0.0,-1396955897446219479,-0.4267416000366211,109949.70053434372,0.9765624737812494,266.3356301245171,10,-39.59,1176450000,1
Agc,1713419527424,498847978000000,18,0.0,-1396955897446219479,-0.4267416000366211,109949.70053434372,0.9765624737812494,266.3356301245171,10,-39.59,1176450000,4
Fix,NLP,32.1050821000,35.2054615000,667.5,,20.0,,1713419526182,,,564677325000000,1.0,0,,,
Fix,FLP,32.1050820000,35.2054621000,667.5,0.012881784,20.0,,1713419526182,1.5,,564677325000000,1.005894,0,,,
Agc,1713419528424,498848978000000,18,0.0,-1396955897446219180,-0.9862852096557617,109888.76968622208,0.9765624737812494,268.1001310507686,10,-50.01,1575420000,1
Agc,1713419528424,498848978000000,18,0.0,-1396955897446219180,-0.9862852096557617,109888.76968622208,0.9765624737812494,268.1001310507686,10,-50.01,1575420000,4
Agc,1713419528424,498848978000000,18,0.0,-1396955897446219180,-0.9862852096557617,109888.76968622208,0.9765624737812494,268.1001310507686,10,-52.97,1602000000,3
Agc,1713419528424,498848978000000,18,0.0,-1396955897446219180,-0.9862852096557617,109888.76968622208,0.9765624737812494,268.1001310507686,10,-39.51,1176450000,1
Agc,1713419528424,498848978000000,18,0.0,-1396955897446219180,-0.9862852096557617,109888.76968622208,0.9765624737812494,268.1001310507686,10,-39.51,1176450000,4
Agc,1713419529424,498849978000000,18,0.0,-1396955897446219423,-0.040747642517089844,109139.74046707153,-0.9765624737812494,266.3356301245171,10,-50.01,1575420000,1
Agc,1713419529424,498849978000000,18,0.0,-1396955897446219423,-0.040747642517089844,109139.74046707153,-0.9765624737812494,266.3356301245171,10,-50.01,1575420000,4
Agc,1713419529424,498849978000000,18,0.0,-1396955897446219423,-0.040747642517089844,109139.74046707153,-0.9765624737812494,266.3356301245171,10,-52.83,1602000000,3
Agc,1713419529424,498849978000000,18,0.0,-1396955897446219423,-0.040747642517089844,109139.74046707153,-0.9765624737812494,266.3356301245171,10,-39.43,1176450000,1
Agc,1713419529424,498849978000000,18,0.0,-1396955897446219423,-0.040747642517089844,109139.74046707153,-0.9765624737812494,266.3356301245171,10,-39.43,1176450000,4
Agc,1713419530424,498850978000000,18,0.0,-1396955897446219391,-0.36087894439697266,108363.58368396759,-0.9765624737812494,266.3356301245171,10,-50.01,1575420000,1
Agc,1713419530424,498850978000000,18,0.0,-1396955897446219391,-0.36087894439697266,108363.58368396759,-0.9765624737812494,266.3356301245171,10,-50.01,1575420000,4
Agc,1713419530424,498850978000000,18,0.0,-1396955897446219391,-0.36087894439697266,108363.58368396759,-0.9765624737812494,266.3356301245171,10,-52.96,1602000000,3
Agc,1713419530424,498850978000000,18,0.0,-1396955897446219391,-0.36087894439697266,108363.58368396759,-0.9765624737812494,266.3356301245171,10,-39.43,1176450000,1
Agc,1713419530424,498850978000000,18,0.0,-1396955897446219391,-0.36087894439697266,108363.58368396759,-0.9765624737812494,266.3356301245171,10,-39.43,1176450000,4
Agc,1713419531424,498851978000000,18,0.0,-1396955897446219421,-0.5804338455200195,108466.83382987976,2.9296875207535953,266.3356301245171,10,-50.05,1575420000,1
Agc,1713419531424,498851978000000,18,0.0,-1396955897446219421,-0.5804338455200195,108466.83382987976,2.9296875207535953,266.3356301245171,10,-50.05,1575420000,4
Agc,1713419531424,498851978000000,18,0.0,-1396955897446219421,-0.5804338455200195,108466.83382987976,2.9296875207535953,266.3356301245171,10,-53.01,1602000000,3
Agc,1713419531424,498851978000000,18,0.0,-1396955897446219421,-0.5804338455200195,108466.83382987976,2.9296875207535953,266.3356301245171,10,-39.51,1176450000,1
Agc,1713419531424,498851978000000,18,0.0,-1396955897446219421,-0.5804338455200195,108466.83382987976,2.9296875207535953,266.3356301245171,10,-39.51,1176450000,4
Agc,1713419532424,498852978000000,18,0.0,-1396955897446219422,-0.5639104843139648,108729.83187437057,-0.9765624737812494,266.3356301245171,10,-50.05,1575420000,1
Agc,1713419532424,498852978000000,18,0.0,-1396955897446219422,-0.5639104843139648,108729.83187437057,-0.9765624737812494,266.3356301245171,10,-50.05,1575420000,4
Agc,1713419532424,498852978000000,18,0.0,-1396955897446219422,-0.5639104843139648,108729.83187437057,-0.9765624737812494,266.3356301245171,10,-52.88,1602000000,3
Agc,1713419532424,498852978000000,18,0.0,-1396955897446219422,-0.5639104843139648,108729.83187437057,-0.9765624737812494,266.3356301245171,10,-39.51,1176450000,1
Agc,1713419532424,498852978000000,18,0.0,-1396955897446219422,-0.5639104843139648,108729.83187437057,-0.9765624737812494,266.3356301245171,10,-39.51,1176450000,4
Fix,NLP,32.1050823000,35.2054622000,667.5,,20.0,,1713419531154,,,564682296000000,1.0,0,,,
Fix,FLP,32.1050822000,35.2054620000,667.5,0.0081373425,20.0,,1713419531153,1.5,,564682296000000,1.0009922,0,,,
Agc,1713419533424,498853978000000,18,0.0,-1396955897446219424,-0.5159626007080078,108993.7686920166,-1.9531249475624988,267.2741863249953,10,-49.96,1575420000,1
Agc,1713419533424,498853978000000,18,0.0,-1396955897446219424,-0.5159626007080078,108993.7686920166,-1.9531249475624988,267.2741863249953,10,-49.96,1575420000,4
Agc,1713419533424,498853978000000,18,0.0,-1396955897446219424,-0.5159626007080078,108993.7686920166,-1.9531249475624988,267.2741863249953,10,-52.88,1602000000,3
Agc,1713419533424,498853978000000,18,0.0,-1396955897446219424,-0.5159626007080078,108993.7686920166,-1.9531249475624988,267.2741863249953,10,-39.43,1176450000,1
Agc,1713419533424,498853978000000,18,0.0,-1396955897446219424,-0.5159626007080078,108993.7686920166,-1.9531249475624988,267.2741863249953,10,-39.43,1176450000,4
Agc,1713419534424,498854978000000,18,0.0,-1396955897446219427,-0.4514913558959961,109257.98118114471,-2.9296875207535953,267.5494927506128,10,-49.96,1575420000,1
Agc,1713419534424,498854978000000,18,0.0,-1396955897446219427,-0.4514913558959961,109257.98118114471,-2.9296875207535953,267.5494927506128,10,-49.96,1575420000,4
Agc,1713419534424,498854978000000,18,0.0,-1396955897446219427,-0.4514913558959961,109257.98118114471,-2.9296875207535953,267.5494927506128,10,-52.79,1602000000,3
Agc,1713419534424,498854978000000,18,0.0,-1396955897446219427,-0.4514913558959961,109257.98118114471,-2.9296875207535953,267.5494927506128,10,-39.35,1176450000,1
Agc,1713419534424,498854978000000,18,0.0,-1396955897446219427,-0.4514913558959961,109257.98118114471,-2.9296875207535953,267.5494927506128,10,-39.35,1176450000,4
Agc,1713419535424,498855978000000,18,0.0,-1396955897446219385,-0.3855133056640625,109474.7930765152,-1.9531249475624988,266.3356301245171,10,-49.96,1575420000,1
Agc,1713419535424,498855978000000,18,0.0,-1396955897446219385,-0.3855133056640625,109474.7930765152,-1.9531249475624988,266.3356301245171,10,-49.96,1575420000,4
Agc,1713419535424,498855978000000,18,0.0,-1396955897446219385,-0.3855133056640625,109474.7930765152,-1.9531249475624988,266.3356301245171,10,-52.92,1602000000,3
Agc,1713419535424,498855978000000,18,0.0,-1396955897446219385,-0.3855133056640625,109474.7930765152,-1.9531249475624988,266.3356301245171,10,-39.51,1176450000,1
Agc,1713419535424,498855978000000,18,0.0,-1396955897446219385,-0.3855133056640625,109474.7930765152,-1.9531249475624988,266.3356301245171,10,-39.51,1176450000,4
Agc,1713419536424,498856978000000,18,0.0,-1396955897446219396,-0.06964588165283203,109580.53171634674,-0.9765624737812494,268.1001310507686,10,-49.93,1575420000,1
Agc,1713419536424,498856978000000,18,0.0,-1396955897446219396,-0.06964588165283203,109580.53171634674,-0.9765624737812494,268.1001310507686,10,-49.93,1575420000,4
Agc,1713419536424,498856978000000,18,0.0,-1396955897446219396,-0.06964588165283203,109580.53171634674,-0.9765624737812494,268.1001310507686,10,-52.87,1602000000,3
Agc,1713419536424,498856978000000,18,0.0,-1396955897446219396,-0.06964588165283203,109580.53171634674,-0.9765624737812494,268.1001310507686,10,-39.35,1176450000,1
Agc,1713419536424,498856978000000,18,0.0,-1396955897446219396,-0.06964588165283203,109580.53171634674,-0.9765624737812494,268.1001310507686,10,-39.35,1176450000,4
Agc,1713419537424,498857978000000,18,0.0,-1396955897446219399,-0.973750114440918,109843.52976083755,-3.9062498951249975,266.3356301245171,10,-49.96,1575420000,1
Agc,1713419537424,498857978000000,18,0.0,-1396955897446219399,-0.973750114440918,109843.52976083755,-3.9062498951249975,266.3356301245171,10,-49.96,1575420000,4
Agc,1713419537424,498857978000000,18,0.0,-1396955897446219399,-0.973750114440918,109843.52976083755,-3.9062498951249975,266.3356301245171,10,-52.84,1602000000,3
Agc,1713419537424,498857978000000,18,0.0,-1396955897446219399,-0.973750114440918,109843.52976083755,-3.9062498951249975,266.3356301245171,10,-39.35,1176450000,1
Agc,1713419537424,498857978000000,18,0.0,-1396955897446219399,-0.973750114440918,109843.52976083755,-3.9062498951249975,266.3356301245171,10,-39.35,1176450000,4
Fix,NLP,32.1050824000,35.2054617000,667.5,,20.0,,1713419536145,,,564687288000000,1.0,0,,,
Fix,FLP,32.1050824000,35.2054617000,667.5,0.0076580825,20.0,,1713419536146,1.5,,564687288000000,1.0010669,0,,,
Agc,1713419538424,498858978000000,18,0.0,-1396955897446219401,-0.9258022308349609,110106.52780532837,-1.9531249475624988,266.3356301245171,10,-50.01,1575420000,1
Agc,1713419538424,498858978000000,18,0.0,-1396955897446219401,-0.9258022308349609,110106.52780532837,-1.9531249475624988,266.3356301245171,10,-50.01,1575420000,4
Agc,1713419538424,498858978000000,18,0.0,-1396955897446219401,-0.9258022308349609,110106.52780532837,-1.9531249475624988,266.3356301245171,10,-52.9,1602000000,3
Agc,1713419538424,498858978000000,18,0.0,-1396955897446219401,-0.9258022308349609,110106.52780532837,-1.9531249475624988,266.3356301245171,10,-39.67,1176450000,1
Agc,1713419538424,498858978000000,18,0.0,-1396955897446219401,-0.9258022308349609,110106.52780532837,-1.9531249475624988,266.3356301245171,10,-39.67,1176450000,4
Agc,1713419539424,498859978000000,18,0.0,-1396955897446219404,-0.8613309860229492,110369.52584981918,-2.9296875207535953,266.3356301245171,10,-50.01,1575420000,1
Agc,1713419539424,498859978000000,18,0.0,-1396955897446219404,-0.8613309860229492,110369.52584981918,-2.9296875207535953,266.3356301245171,10,-50.01,1575420000,4
Agc,1713419539424,498859978000000,18,0.0,-1396955897446219404,-0.8613309860229492,110369.52584981918,-2.9296875207535953,266.3356301245171,10,-53.14,1602000000,3
Agc,1713419539424,498859978000000,18,0.0,-1396955897446219404,-0.8613309860229492,110369.52584981918,-2.9296875207535953,266.3356301245171,10,-39.59,1176450000,1
Agc,1713419539424,498859978000000,18,0.0,-1396955897446219404,-0.8613309860229492,110369.52584981918,-2.9296875207535953,266.3356301245171,10,-39.59,1176450000,4
Agc,1713419540424,498860978000000,18,0.0,-1396955897446219501,-0.48046016693115234,110607.44524002075,-1.9531249475624988,267.0927355194256,10,-49.96,1575420000,1
Agc,1713419540424,498860978000000,18,0.0,-1396955897446219501,-0.48046016693115234,110607.44524002075,-1.9531249475624988,267.0927355194256,10,-49.96,1575420000,4
Agc,1713419540424,498860978000000,18,0.0,-1396955897446219501,-0.48046016693115234,110607.44524002075,-1.9531249475624988,267.0927355194256,10,-53.01,1602000000,3
Agc,1713419540424,498860978000000,18,0.0,-1396955897446219501,-0.48046016693115234,110607.44524002075,-1.9531249475624988,267.0927355194256,10,-39.43,1176450000,1
Agc,1713419540424,498860978000000,18,0.0,-1396955897446219501,-0.48046016693115234,110607.44524002075,-1.9531249475624988,267.0927355194256,10,-39.43,1176450000,4
Agc,1713419541424,498861978000000,18,0.0,-1396955897446219485,-0.715031623840332,110703.44597101212,0.0,266.3356301245171,10,-50.01,1575420000,1
Agc,1713419541424,498861978000000,18,0.0,-1396955897446219485,-0.715031623840332,110703.44597101212,0.0,266.3356301245171,10,-50.01,1575420000,4
Agc,1713419541424,498861978000000,18,0.0,-1396955897446219485,-0.715031623840332,110703.44597101212,0.0,266.3356301245171,10,-53.1,1602000000,3
Agc,1713419541424,498861978000000,18,0.0,-1396955897446219485,-0.715031623840332,110703.44597101212,0.0,266.3356301245171,10,-39.43,1176450000,1
Agc,1713419541424,498861978000000,18,0.0,-1396955897446219485,-0.715031623840332,110703.44597101212,0.0,266.3356301245171,10,-39.43,1176450000,4
Agc,1713419542424,498862978000000,18,0.0,-1396955897446219477,-0.4448871612548828,110790.55815935135,-0.9765624737812494,267.5620136196647,10,-50.01,1575420000,1
Agc,1713419542424,498862978000000,18,0.0,-1396955897446219477,-0.4448871612548828,110790.55815935135,-0.9765624737812494,267.5620136196647,10,-50.01,1575420000,4
Agc,1713419542424,498862978000000,18,0.0,-1396955897446219477,-0.4448871612548828,110790.55815935135,-0.9765624737812494,267.5620136196647,10,-53.04,1602000000,3
Agc,1713419542424,498862978000000,18,0.0,-1396955897446219477,-0.4448871612548828,110790.55815935135,-0.9765624737812494,267.5620136196647,10,-39.59,1176450000,1
Agc,1713419542424,498862978000000,18,0.0,-1396955897446219477,-0.4448871612548828,110790.55815935135,-0.9765624737812494,267.5620136196647,10,-39.59,1176450000,4
Fix,NLP,32.1050824000,35.2054617000,667.5,,20.0,,1713419541242,,,564692385000000,1.0,0,,,
Fix,FLP,32.1050824000,35.2054617000,667.5,0.0006960098,20.0,,1713419541242,1.5,,564692385000000,1.0074747,0,,,
Agc,1713419543424,498863978000000,18,0.0,-1396955897446219393,-0.5066461563110352,110295.34041881561,-0.9765624737812494,267.77474114894335,10,-50.01,1575420000,1
Agc,1713419543424,498863978000000,18,0.0,-1396955897446219393,-0.5066461563110352,110295.34041881561,-0.9765624737812494,267.77474114894335,10,-50.01,1575420000,4
Agc,1713419543424,498863978000000,18,0.0,-1396955897446219393,-0.5066461563110352,110295.34041881561,-0.9765624737812494,267.77474114894335,10,-52.88,1602000000,3
Agc,1713419543424,498863978000000,18,0.0,-1396955897446219393,-0.5066461563110352,110295.34041881561,-0.9765624737812494,267.77474114894335,10,-39.59,1176450000,1
Agc,1713419543424,498863978000000,18,0.0,-1396955897446219393,-0.5066461563110352,110295.34041881561,-0.9765624737812494,267.77474114894335,10,-39.59,1176450000,4
Agc,1713419544424,498864978000000,18,0.0,-1396955897446219395,-0.4586982727050781,110558.33846330643,-1.9531249475624988,266.3356301245171,10,-50.01,1575420000,1
Agc,1713419544424,498864978000000,18,0.0,-1396955897446219395,-0.4586982727050781,110558.33846330643,-1.9531249475624988,266.3356301245171,10,-50.01,1575420000,4
Agc,1713419544424,498864978000000,18,0.0,-1396955897446219395,-0.4586982727050781,110558.33846330643,-1.9531249475624988,266.3356301245171,10,-52.93,1602000000,3
Agc,1713419544424,498864978000000,18,0.0,-1396955897446219395,-0.4586982727050781,110558.33846330643,-1.9531249475624988,266.3356301245171,10,-39.51,1176450000,1
Agc,1713419544424,498864978000000,18,0.0,-1396955897446219395,-0.4586982727050781,110558.33846330643,-1.9531249475624988,266.3356301245171,10,-39.51,1176450000,4
Agc,1713419545424,498865978000000,18,0.0,-1396955897446219398,-0.3942270278930664,110821.33650779724,-2.9296875207535953,266.3356301245171,10,-50.01,1575420000,1
Agc,1713419545424,498865978000000,18,0.0,-1396955897446219398,-0.3942270278930664,110821.33650779724,-2.9296875207535953,266.3356301245171,10,-50.01,1575420000,4
Agc,1713419545424,498865978000000,18,0.0,-1396955897446219398,-0.3942270278930664,110821.33650779724,-2.9296875207535953,266.3356301245171,10,-53.02,1602000000,3
Agc,1713419545424,498865978000000,18,0.0,-1396955897446219398,-0.3942270278930664,110821.33650779724,-2.9296875207535953,266.3356301245171,10,-39.35,1176450000,1
Agc,1713419545424,498865978000000,18,0.0,-1396955897446219398,-0.3942270278930664,110821.33650779724,-2.9296875207535953,266.3356301245171,10,-39.35,1176450000,4
Agc,1713419546424,498866978000000,18,0.0,-1396955897446219399,-0.3777036666870117,111084.33455228806,-0.9765624737812494,266.3356301245171,10,-50.01,1575420000,1
Agc,1713419546424,498866978000000,18,0.0,-1396955897446219399,-0.3777036666870117,111084.33455228806,-0.9765624737812494,266.3356301245171,10,-50.01,1575420000,4
Agc,1713419546424,498866978000000,18,0.0,-1396955897446219399,-0.3777036666870117,111084.33455228806,-0.9765624737812494,266.3356301245171,10,-52.8,1602000000,3
Agc,1713419546424,498866978000000,18,0.0,-1396955897446219399,-0.3777036666870117,111084.33455228806,-0.9765624737812494,266.3356301245171,10,-39.83,1176450000,1
Agc,1713419546424,498866978000000,18,0.0,-1396955897446219399,-0.3777036666870117,111084.33455228806,-0.9765624737812494,266.3356301245171,10,-39.83,1176450000,4
Agc,1713419547424,498867978000000,18,0.0,-1396955897446219399,-0.3777036666870117,111347.33259677887,0.0,266.3356301245171,10,-50.1,1575420000,1
Agc,1713419547424,498867978000000,18,0.0,-1396955897446219399,-0.3777036666870117,111347.33259677887,0.0,266.3356301245171,10,-50.1,1575420000,4
Agc,1713419547424,498867978000000,18,0.0,-1396955897446219399,-0.3777036666870117,111347.33259677887,0.0,266.3356301245171,10,-53.16,1602000000,3
Agc,1713419547424,498867978000000,18,0.0,-1396955897446219399,-0.3777036666870117,111347.33259677887,0.0,266.3356301245171,10,-39.99,1176450000,1
Agc,1713419547424,498867978000000,18,0.0,-1396955897446219399,-0.3777036666870117,111347.33259677887,0.0,266.3356301245171,10,-39.99,1176450000,4
Fix,NLP,32.1050823000,35.2054617000,667.5,,20.0,,1713419546204,,,564697347000000,1.0,0,,,
Fix,FLP,32.1050823000,35.2054617000,667.5,0.0021167824,20.0,,1713419546205,1.5,,564697347000000,0.9973053,0,,,
Agc,1713419548424,498868978000000,18,0.0,-1396955897446219402,-0.313232421875,111610.33064126968,-2.9296875207535953,266.3356301245171,10,-50.05,1575420000,1
Agc,1713419548424,498868978000000,18,0.0,-1396955897446219402,-0.313232421875,111610.33064126968,-2.9296875207535953,266.3356301245171,10,-50.05,1575420000,4
Agc,1713419548424,498868978000000,18,0.0,-1396955897446219402,-0.313232421875,111610.33064126968,-2.9296875207535953,266.3356301245171,10,-53.02,1602000000,3
Agc,1713419548424,498868978000000,18,0.0,-1396955897446219402,-0.313232421875,111610.33064126968,-2.9296875207535953,266.3356301245171,10,-39.67,1176450000,1
Agc,1713419548424,498868978000000,18,0.0,-1396955897446219402,-0.313232421875,111610.33064126968,-2.9296875207535953,266.3356301245171,10,-39.67,1176450000,4
Agc,1713419549424,498869978000000,18,0.0,-1396955897446219554,-0.051756858825683594,111631.66165351868,-3.9062498951249975,267.2679258904693,10,-50.01,1575420000,1
Agc,1713419549424,498869978000000,18,0.0,-1396955897446219554,-0.051756858825683594,111631.66165351868,-3.9062498951249975,267.2679258904693,10,-50.01,1575420000,4
Agc,1713419549424,498869978000000,18,0.0,-1396955897446219554,-0.051756858825683594,111631.66165351868,-3.9062498951249975,267.2679258904693,10,-52.89,1602000000,3
Agc,1713419549424,498869978000000,18,0.0,-1396955897446219554,-0.051756858825683594,111631.66165351868,-3.9062498951249975,267.2679258904693,10,-39.59,1176450000,1
Agc,1713419549424,498869978000000,18,0.0,-1396955897446219554,-0.051756858825683594,111631.66165351868,-3.9062498951249975,267.2679258904693,10,-39.59,1176450000,4
Agc,1713419550424,498870978000000,18,0.0,-1396955897446219395,-0.9504365921020508,110874.34738874435,-1.9531249475624988,266.3356301245171,10,-50.01,1575420000,1
Agc,1713419550424,498870978000000,18,0.0,-1396955897446219395,-0.9504365921020508,110874.34738874435,-1.9531249475624988,266.3356301245171,10,-50.01,1575420000,4
Agc,1713419550424,498870978000000,18,0.0,-1396955897446219395,-0.9504365921020508,110874.34738874435,-1.9531249475624988,266.3356301245171,10,-52.94,1602000000,3
Agc,1713419550424,498870978000000,18,0.0,-1396955897446219395,-0.9504365921020508,110874.34738874435,-1.9531249475624988,266.3356301245171,10,-39.43,1176450000,1
Agc,1713419550424,498870978000000,18,0.0,-1396955897446219395,-0.9504365921020508,110874.34738874435,-1.9531249475624988,266.3356301245171,10,-39.43,1176450000,4
Agc,1713419551424,498871978000000,18,0.0,-1396955897446219494,-0.5663213729858398,110970.43752670288,-0.9765624737812494,266.3356301245171,10,-50.03,1575420000,1
Agc,1713419551424,498871978000000,18,0.0,-1396955897446219494,-0.5663213729858398,110970.43752670288,-0.9765624737812494,266.3356301245171,10,-50.03,1575420000,4
Agc,1713419551424,498871978000000,18,0.0,-1396955897446219494,-0.5663213729858398,110970.43752670288,-0.9765624737812494,266.3356301245171,10,-53.11,1602000000,3
Agc,1713419551424,498871978000000,18,0.0,-1396955897446219494,-0.5663213729858398,110970.43752670288,-0.9765624737812494,266.3356301245171,10,-39.51,1176450000,1
Agc,1713419551424,498871978000000,18,0.0,-1396955897446219494,-0.5663213729858398,110970.43752670288,-0.9765624737812494,266.3356301245171,10,-39.51,1176450000,4
Agc,1713419552424,498872978000000,18,0.0,-1396955897446219408,-0.6164236068725586,111058.40653181076,0.0,268.0813497471907,10,-49.96,1575420000,1
Agc,1713419552424,498872978000000,18,0.0,-1396955897446219408,-0.6164236068725586,111058.40653181076,0.0,268.0813497471907,10,-49.96,1575420000,4
Agc,1713419552424,498872978000000,18,0.0,-1396955897446219408,-0.6164236068725586,111058.40653181076,0.0,268.0813497471907,10,-52.88,1602000000,3
Agc,1713419552424,498872978000000,18,0.0,-1396955897446219408,-0.6164236068725586,111058.40653181076,0.0,268.0813497471907,10,-39.43,1176450000,1
Agc,1713419552424,498872978000000,18,0.0,-1396955897446219408,-0.6164236068725586,111058.40653181076,0.0,268.0813497471907,10,-39.43,1176450000,4
Fix,NLP,32.1050823000,35.2054622000,667.5,,20.0,,1713419551214,,,564702356000000,1.0,0,,,
Fix,FLP,32.1050823000,35.2054621000,667.5,0.004565367,20.0,,1713419551214,1.5,,564702356000000,0.9972237,0,,,
Agc,1713419553424,498873978000000,18,0.0,-1396955897446219410,-0.5684757232666016,111321.40457630157,-1.9531249475624988,266.3356301245171,10,-50.05,1575420000,1
Agc,1713419553424,498873978000000,18,0.0,-1396955897446219410,-0.5684757232666016,111321.40457630157,-1.9531249475624988,266.3356301245171,10,-50.05,1575420000,4
Agc,1713419553424,498873978000000,18,0.0,-1396955897446219410,-0.5684757232666016,111321.40457630157,-1.9531249475624988,266.3356301245171,10,-53.26,1602000000,3
Agc,1713419553424,498873978000000,18,0.0,-1396955897446219410,-0.5684757232666016,111321.40457630157,-1.9531249475624988,266.3356301245171,10,-39.99,1176450000,1
Agc,1713419553424,498873978000000,18,0.0,-1396955897446219410,-0.5684757232666016,111321.40457630157,-1.9531249475624988,266.3356301245171,10,-39.99,1176450000,4
Agc,1713419554424,498874978000000,18,0.0,-1396955897446219414,-0.4725799560546875,111584.40262079239,-3.9062498951249975,266.3356301245171,10,-50.01,1575420000,1
Agc,1713419554424,498874978000000,18,0.0,-1396955897446219414,-0.4725799560546875,111584.40262079239,-3.9062498951249975,266.3356301245171,10,-50.01,1575420000,4
Agc,1713419554424,498874978000000,18,0.0,-1396955897446219414,-0.4725799560546875,111584.40262079239,-3.9062498951249975,266.3356301245171,10,-52.95,1602000000,3
Agc,1713419554424,498874978000000,18,0.0,-1396955897446219414,-0.4725799560546875,111584.40262079239,-3.9062498951249975,266.3356301245171,10,-39.59,1176450000,1
Agc,1713419554424,498874978000000,18,0.0,-1396955897446219414,-0.4725799560546875,111584.40262079239,-3.9062498951249975,266.3356301245171,10,-39.59,1176450000,4
Agc,1713419555424,498875978000000,18,0.0,-1396955897446219418,-0.37668418884277344,111847.4006652832,-3.9062498951249975,266.3356301245171,10,-49.96,1575420000,1
Agc,1713419555424,498875978000000,18,0.0,-1396955897446219418,-0.37668418884277344,111847.4006652832,-3.9062498951249975,266.3356301245171,10,-49.96,1575420000,4
Agc,1713419555424,498875978000000,18,0.0,-1396955897446219418,-0.37668418884277344,111847.4006652832,-3.9062498951249975,266.3356301245171,10,-52.94,1602000000,3
Agc,1713419555424,498875978000000,18,0.0,-1396955897446219418,-0.37668418884277344,111847.4006652832,-3.9062498951249975,266.3356301245171,10,-39.51,1176450000,1
Agc,1713419555424,498875978000000,18,0.0,-1396955897446219418,-0.37668418884277344,111847.4006652832,-3.9062498951249975,266.3356301245171,10,-39.51,1176450000,4
Fix,NLP,32.1050825000,35.2054619000,667.5,,20.0,,1713419556233,,,564707376000000,1.0,0,,,
Fix,FLP,32.1050825000,35.2054619000,667.5,0.0056288457,20.0,,1713419556233,1.5,,564707376000000,1.0006146,0,,,
Agc,1713419558414,498878969000000,18,0.0,-1396955897445928442,0.5723519325256348,112617.46287345886,0.0,266.42164747694704,11,-50.01,1575420000,1
Agc,1713419558414,498878969000000,18,0.0,-1396955897445928442,0.5723519325256348,112617.46287345886,0.0,266.42164747694704,11,-50.01,1575420000,4
Agc,1713419558414,498878969000000,18,0.0,-1396955897445928442,0.5723519325256348,112617.46287345886,0.0,266.42164747694704,11,-53.04,1602000000,3
Agc,1713419558414,498878969000000,18,0.0,-1396955897445928442,0.5723519325256348,112617.46287345886,0.0,266.42164747694704,11,-59.07,1561098000,5
Agc,1713419558414,498878969000000,18,0.0,-1396955897445928442,0.5723519325256348,112617.46287345886,0.0,266.42164747694704,11,-53.83,1575420000,6
Agc,1713419558414,498878969000000,18,0.0,-1396955897445928442,0.5723519325256348,112617.46287345886,0.0,266.42164747694704,11,-39.59,1176450000,1
Agc,1713419558414,498878969000000,18,0.0,-1396955897445928442,0.5723519325256348,112617.46287345886,0.0,266.42164747694704,11,-39.59,1176450000,4
Agc,1713419558414,498878969000000,18,0.0,-1396955897445928442,0.5723519325256348,112617.46287345886,0.0,266.42164747694704,11,-39.59,1176450000,6
Agc,1713419558414,498878969000000,18,0.0,-1396955897445928442,0.5723519325256348,112617.46287345886,0.0,266.42164747694704,11,-39.59,1176450000,5
Agc,1713419558414,498878969000000,18,0.0,-1396955897445928442,0.5723519325256348,112617.46287345886,0.0,266.42164747694704,11,-53.83,1575420000,5
Agc,1713419559414,498879969000000,18,0.0,-1396955897445928443,0.5963258743286133,112881.83182477951,-0.9765624737812494,267.7059272669994,11,-49.98,1575420000,1
Agc,1713419559414,498879969000000,18,0.0,-1396955897445928443,0.5963258743286133,112881.83182477951,-0.9765624737812494,267.7059272669994,11,-49.98,1575420000,4
Agc,1713419559414,498879969000000,18,0.0,-1396955897445928443,0.5963258743286133,112881.83182477951,-0.9765624737812494,267.7059272669994,11,-52.92,1602000000,3
Agc,1713419559414,498879969000000,18,0.0,-1396955897445928443,0.5963258743286133,112881.83182477951,-0.9765624737812494,267.7059272669994,11,-59.25,1561098000,5
Agc,1713419559414,498879969000000,18,0.0,-1396955897445928443,0.5963258743286133,112881.83182477951,-0.9765624737812494,267.7059272669994,11,-53.8,1575420000,6
Agc,1713419559414,498879969000000,18,0.0,-1396955897445928443,0.5963258743286133,112881.83182477951,-0.9765624737812494,267.7059272669994,11,-39.51,1176450000,1
Agc,1713419559414,498879969000000,18,0.0,-1396955897445928443,0.5963258743286133,112881.83182477951,-0.9765624737812494,267.7059272669994,11,-39.51,1176450000,4
Agc,1713419559414,498879969000000,18,0.0,-1396955897445928443,0.5963258743286133,112881.83182477951,-0.9765624737812494,267.7059272669994,11,-39.51,1176450000,6
Agc,1713419559414,498879969000000,18,0.0,-1396955897445928443,0.5963258743286133,112881.83182477951,-0.9765624737812494,267.7059272669994,11,-39.51,1176450000,5
Agc,1713419559414,498879969000000,18,0.0,-1396955897445928443,0.5963258743286133,112881.83182477951,-0.9765624737812494,267.7059272669994,11,-53.8,1575420000,5
Agc,1713419560414,498880969000000,18,0.0,-1396955897445928446,0.6682476997375488,113146.43174409866,-2.9296875207535953,267.937436099856,11,-50.01,1575420000,1
Agc,1713419560414,498880969000000,18,0.0,-1396955897445928446,0.6682476997375488,113146.43174409866,-2.9296875207535953,267.937436099856,11,-50.01,1575420000,4
Agc,1713419560414,498880969000000,18,0.0,-1396955897445928446,0.6682476997375488,113146.43174409866,-2.9296875207535953,267.937436099856,11,-52.9,1602000000,3
Agc,1713419560414,498880969000000,18,0.0,-1396955897445928446,0.6682476997375488,113146.43174409866,-2.9296875207535953,267.937436099856,11,-59.21,1561098000,5
Agc,1713419560414,498880969000000,18,0.0,-1396955897445928446,0.6682476997375488,113146.43174409866,-2.9296875207535953,267.937436099856,11,-53.82,1575420000,6
Agc,1713419560414,498880969000000,18,0.0,-1396955897445928446,0.6682476997375488,113146.43174409866,-2.9296875207535953,267.937436099856,11,-39.51,1176450000,1
Agc,1713419560414,498880969000000,18,0.0,-1396955897445928446,0.6682476997375488,113146.43174409866,-2.9296875207535953,267.937436099856,11,-39.51,1176450000,4
Agc,1713419560414,498880969000000,18,0.0,-1396955897445928446,0.6682476997375488,113146.43174409866,-2.9296875207535953,267.937436099856,11,-39.51,1176450000,6
Agc,1713419560414,498880969000000,18,0.0,-1396955897445928446,0.6682476997375488,113146.43174409866,-2.9296875207535953,267.937436099856,11,-39.51,1176450000,5
Agc,1713419560414,498880969000000,18,0.0,-1396955897445928446,0.6682476997375488,113146.43174409866,-2.9296875207535953,267.937436099856,11,-53.82,1575420000,5
Agc,1713419561414,498881969000000,18,0.0,-1396955897445928487,0.3324265480041504,113283.41066837311,-0.9765624737812494,266.3356301245171,11,-49.98,1575420000,1
Agc,1713419561414,498881969000000,18,0.0,-1396955897445928487,0.3324265480041504,113283.41066837311,-0.9765624737812494,266.3356301245171,11,-49.98,1575420000,4
Agc,1713419561414,498881969000000,18,0.0,-1396955897445928487,0.3324265480041504,113283.41066837311,-0.9765624737812494,266.3356301245171,11,-52.89,1602000000,3
Agc,1713419561414,498881969000000,18,0.0,-1396955897445928487,0.3324265480041504,113283.41066837311,-0.9765624737812494,266.3356301245171,11,-59.2,1561098000,5
Agc,1713419561414,498881969000000,18,0.0,-1396955897445928487,0.3324265480041504,113283.41066837311,-0.9765624737812494,266.3356301245171,11,-53.8,1575420000,6
Agc,1713419561414,498881969000000,18,0.0,-1396955897445928487,0.3324265480041504,113283.41066837311,-0.9765624737812494,266.3356301245171,11,-39.59,1176450000,1
Agc,1713419561414,498881969000000,18,0.0,-1396955897445928487,0.3324265480041504,113283.41066837311,-0.9765624737812494,266.3356301245171,11,-39.59,1176450000,4
Agc,1713419561414,498881969000000,18,0.0,-1396955897445928487,0.3324265480041504,113283.41066837311,-0.9765624737812494,266.3356301245171,11,-39.59,1176450000,6
Agc,1713419561414,498881969000000,18,0.0,-1396955897445928487,0.3324265480041504,113283.41066837311,-0.9765624737812494,266.3356301245171,11,-39.59,1176450000,5
Agc,1713419561414,498881969000000,18,0.0,-1396955897445928487,0.3324265480041504,113283.41066837311,-0.9765624737812494,266.3356301245171,11,-53.8,1575420000,5
Agc,1713419562414,498882969000000,18,0.0,-1396955897445928318,0.09552764892578125,112519.56969499588,1.9531249475624988,266.3356301245171,12,-50.05,1575420000,1
Agc,1713419562414,498882969000000,18,0.0,-1396955897445928318,0.09552764892578125,112519.56969499588,1.9531249475624988,266.3356301245171,12,-50.05,1575420000,4
Agc,1713419562414,498882969000000,18,0.0,-1396955897445928318,0.09552764892578125,112519.56969499588,1.9531249475624988,266.3356301245171,12,-53.04,1602000000,3
Agc,1713419562414,498882969000000,18,0.0,-1396955897445928318,0.09552764892578125,112519.56969499588,1.9531249475624988,266.3356301245171,12,-59.1,1561098000,5
Agc,1713419562414,498882969000000,18,0.0,-1396955897445928318,0.09552764892578125,112519.56969499588,1.9531249475624988,266.3356301245171,12,-53.86,1575420000,6
Agc,1713419562414,498882969000000,18,0.0,-1396955897445928318,0.09552764892578125,112519.56969499588,1.9531249475624988,266.3356301245171,12,-40.1,1176450000,1
Agc,1713419562414,498882969000000,18,0.0,-1396955897445928318,0.09552764892578125,112519.56969499588,1.9531249475624988,266.3356301245171,12,-40.1,1176450000,4
Agc,1713419562414,498882969000000,18,0.0,-1396955897445928318,0.09552764892578125,112519.56969499588,1.9531249475624988,266.3356301245171,12,-40.1,1176450000,6
Agc,1713419562414,498882969000000,18,0.0,-1396955897445928318,0.09552764892578125,112519.56969499588,1.9531249475624988,266.3356301245171,12,-40.1,1176450000,5
Agc,1713419562414,498882969000000,18,0.0,-1396955897445928318,0.09552764892578125,112519.56969499588,1.9531249475624988,266.3356301245171,12,-53.86,1575420000,5
Agc,1713419563414,498883969000000,18,0.0,-1396955897445928334,0.009724140167236328,111936.69587373734,-0.9765624737812494,266.3356301245171,12,-50.05,1575420000,1
Agc,1713419563414,498883969000000,18,0.0,-1396955897445928334,0.009724140167236328,111936.69587373734,-0.9765624737812494,266.3356301245171,12,-50.05,1575420000,4
Agc,1713419563414,498883969000000,18,0.0,-1396955897445928334,0.009724140167236328,111936.69587373734,-0.9765624737812494,266.3356301245171,12,-53.1,1602000000,3
Agc,1713419563414,498883969000000,18,0.0,-1396955897445928334,0.009724140167236328,111936.69587373734,-0.9765624737812494,266.3356301245171,12,-59.07,1561098000,5
Agc,1713419563414,498883969000000,18,0.0,-1396955897445928334,0.009724140167236328,111936.69587373734,-0.9765624737812494,266.3356301245171,12,-53.9,1575420000,6
Agc,1713419563414,498883969000000,18,0.0,-1396955897445928334,0.009724140167236328,111936.69587373734,-0.9765624737812494,266.3356301245171,12,-40.13,1176450000,1
Agc,1713419563414,498883969000000,18,0.0,-1396955897445928334,0.009724140167236328,111936.69587373734,-0.9765624737812494,266.3356301245171,12,-40.13,1176450000,4
Agc,1713419563414,498883969000000,18,0.0,-1396955897445928334,0.009724140167236328,111936.69587373734,-0.9765624737812494,266.3356301245171,12,-40.13,1176450000,6
Agc,1713419563414,498883969000000,18,0.0,-1396955897445928334,0.009724140167236328,111936.69587373734,-0.9765624737812494,266.3356301245171,12,-40.13,1176450000,5
Agc,1713419563414,498883969000000,18,0.0,-1396955897445928334,0.009724140167236328,111936.69587373734,-0.9765624737812494,266.3356301245171,12,-53.9,1575420000,5
Fix,FLP,32.1050824000,35.2054617000,667.5,0.0042612823,20.0,,1713419561245,1.5,,564712387000000,0.9979012,0,,,
Fix,NLP,32.1050824000,35.2054617000,667.5,,20.0,,1713419561244,,,564712387000000,1.0,0,,,
Agc,1713419564414,498884969000000,18,0.0,-1396955897445928428,0.40062952041625977,112000.87517499924,-1.9531249475624988,267.0114007684297,12,-49.98,1575420000,1
Agc,1713419564414,498884969000000,18,0.0,-1396955897445928428,0.40062952041625977,112000.87517499924,-1.9531249475624988,267.0114007684297,12,-49.98,1575420000,4
Agc,1713419564414,498884969000000,18,0.0,-1396955897445928428,0.40062952041625977,112000.87517499924,-1.9531249475624988,267.0114007684297,12,-52.89,1602000000,3
Agc,1713419564414,498884969000000,18,0.0,-1396955897445928428,0.40062952041625977,112000.87517499924,-1.9531249475624988,267.0114007684297,12,-59.15,1561098000,5
Agc,1713419564414,498884969000000,18,0.0,-1396955897445928428,0.40062952041625977,112000.87517499924,-1.9531249475624988,267.0114007684297,12,-53.8,1575420000,6
Agc,1713419564414,498884969000000,18,0.0,-1396955897445928428,0.40062952041625977,112000.87517499924,-1.9531249475624988,267.0114007684297,12,-39.51,1176450000,1
Agc,1713419564414,498884969000000,18,0.0,-1396955897445928428,0.40062952041625977,112000.87517499924,-1.9531249475624988,267.0114007684297,12,-39.51,1176450000,4
Agc,1713419564414,498884969000000,18,0.0,-1396955897445928428,0.40062952041625977,112000.87517499924,-1.9531249475624988,267.0114007684297,12,-39.51,1176450000,6
Agc,1713419564414,498884969000000,18,0.0,-1396955897445928428,0.40062952041625977,112000.87517499924,-1.9531249475624988,267.0114007684297,12,-39.51,1176450000,5
Agc,1713419564414,498884969000000,18,0.0,-1396955897445928428,0.40062952041625977,112000.87517499924,-1.9531249475624988,267.0114007684297,12,-53.8,1575420000,5
Agc,1713419565414,498885969000000,18,0.0,-1396955897445928432,0.49652528762817383,112264.81944322586,-3.9062498951249975,267.2804467595212,12,-49.96,1575420000,1
Agc,1713419565414,498885969000000,18,0.0,-1396955897445928432,0.49652528762817383,112264.81944322586,-3.9062498951249975,267.2804467595212,12,-49.96,1575420000,4
Agc,1713419565414,498885969000000,18,0.0,-1396955897445928432,0.49652528762817383,112264.81944322586,-3.9062498951249975,267.2804467595212,12,-52.85,1602000000,3
Agc,1713419565414,498885969000000,18,0.0,-1396955897445928432,0.49652528762817383,112264.81944322586,-3.9062498951249975,267.2804467595212,12,-59.1,1561098000,5
Agc,1713419565414,498885969000000,18,0.0,-1396955897445928432,0.49652528762817383,112264.81944322586,-3.9062498951249975,267.2804467595212,12,-53.75,1575420000,6
Agc,1713419565414,498885969000000,18,0.0,-1396955897445928432,0.49652528762817383,112264.81944322586,-3.9062498951249975,267.2804467595212,12,-39.35,1176450000,1
Agc,1713419565414,498885969000000,18,0.0,-1396955897445928432,0.49652528762817383,112264.81944322586,-3.9062498951249975,267.2804467595212,12,-39.35,1176450000,4
Agc,1713419565414,498885969000000,18,0.0,-1396955897445928432,0.49652528762817383,112264.81944322586,-3.9062498951249975,267.2804467595212,12,-39.35,1176450000,6
Agc,1713419565414,498885969000000,18,0.0,-1396955897445928432,0.49652528762817383,112264.81944322586,-3.9062498951249975,267.2804467595212,12,-39.35,1176450000,5
Agc,1713419565414,498885969000000,18,0.0,-1396955897445928432,0.49652528762817383,112264.81944322586,-3.9062498951249975,267.2804467595212,12,-53.75,1575420000,5
Status,,2,0,5,24,1561097980,18.60,324.1105,50.222095,1,1,0,13.6
Status,,2,1,6,5,1575420030,18.60,257.136,42.00817,1,1,0,13.6
Raw,1713419566414,498886969000000,18,0.0,-1396955897445928434,0.5444731712341309,112529.03193235397,-1.9531249475624988,267.5494927506128,12,24,0.0,16399,366770340139153,122,22.9,-319.8321838378906,5.691500186920166,16,0.0,0.0,1561097980,,,,0,0.0,5,-59.07,18.599999999999998,-1529.8797607421875,21.58974838256836,,,I,564717045102175
Raw,1713419566414,498886969000000,18,0.0,-1396955897445928434,0.5444731712341309,112529.03193235397,-1.9531249475624988,267.5494927506128,12,5,0.0,23567,366784336412722,122,22.9,213.8996124267578,6.675500392913818,16,0.0,0.0,1575420030,,,,0,0.0,6,-53.83,18.599999999999998,-1467.3328857421875,26.5100154876709,,,C,564717045102175
Agc,1713419566414,498886969000000,18,0.0,-1396955897445928434,0.5444731712341309,112529.03193235397,-1.9531249475624988,267.5494927506128,12,-50.01,1575420000,1
Agc,1713419566414,498886969000000,18,0.0,-1396955897445928434,0.5444731712341309,112529.03193235397,-1.9531249475624988,267.5494927506128,12,-50.01,1575420000,4
Agc,1713419566414,498886969000000,18,0.0,-1396955897445928434,0.5444731712341309,112529.03193235397,-1.9531249475624988,267.5494927506128,12,-53.03,1602000000,3
Agc,1713419566414,498886969000000,18,0.0,-1396955897445928434,0.5444731712341309,112529.03193235397,-1.9531249475624988,267.5494927506128,12,-59.07,1561098000,5
Agc,1713419566414,498886969000000,18,0.0,-1396955897445928434,0.5444731712341309,112529.03193235397,-1.9531249475624988,267.5494927506128,12,-53.83,1575420000,6
Agc,1713419566414,498886969000000,18,0.0,-1396955897445928434,0.5444731712341309,112529.03193235397,-1.9531249475624988,267.5494927506128,12,-39.59,1176450000,1
Agc,1713419566414,498886969000000,18,0.0,-1396955897445928434,0.5444731712341309,112529.03193235397,-1.9531249475624988,267.5494927506128,12,-39.59,1176450000,4
Agc,1713419566414,498886969000000,18,0.0,-1396955897445928434,0.5444731712341309,112529.03193235397,-1.9531249475624988,267.5494927506128,12,-39.59,1176450000,6
Agc,1713419566414,498886969000000,18,0.0,-1396955897445928434,0.5444731712341309,112529.03193235397,-1.9531249475624988,267.5494927506128,12,-39.59,1176450000,5
Agc,1713419566414,498886969000000,18,0.0,-1396955897445928434,0.5444731712341309,112529.03193235397,-1.9531249475624988,267.5494927506128,12,-53.83,1575420000,5
Status,,2,0,5,24,1561097980,18.60,324.1105,50.222095,1,1,0,13.6
Status,,2,1,6,5,1575420030,18.60,257.136,42.00817,1,1,0,13.6
Agc,1713419567414,498887969000000,18,0.0,-1396955897445928432,0.49652528762817383,112793.39343309402,1.9531249475624988,267.69966683247344,12,-49.98,1575420000,1
Agc,1713419567414,498887969000000,18,0.0,-1396955897445928432,0.49652528762817383,112793.39343309402,1.9531249475624988,267.69966683247344,12,-49.98,1575420000,4
